id_review,rate,comment,name,latitude,longitude
1,5,Mattis molestie a iaculis at erat pellentesque adipiscing commodo.,John,45.191338,5.770000
2,4,Amet massa vitae tortor condimentum lacinia.,Erik,45.191512,5.773273
3,3,Imperdiet sed euismod nisi porta lorem mollis aliquam.,Ayesha,45.192290,5.772736
4,1,Dignissim enim sit amet venenatis. Urna cursus eget nunc scelerisque.,Kimberly,45.192981,5.767456
5,4,A pellentesque sit amet porttitor eget dolor morbi.,Aadam,45.193479,5.772562
